<?xml version="1.0" encoding="UTF-8"?><kml xmlns="http://www.opengis.net/kml/2.2"><Document><name>overpass-turbo.eu export</name><description>Filtered OSM data converted to KML by overpass turbo.
Copyright: The data included in this document is from www.openstreetmap.org. The data is made available under ODbL.
Timestamp: 2017-03-13T20:50:02Z</description><Placemark><name>Южный речной вокзал</name><Point><coordinates>37.6757689,55.6893577</coordinates></Point><ExtendedData><Data name="@id"><value>node/249719606</value></Data><Data name="amenity"><value>ferry_terminal</value></Data><Data name="harbour"><value>yes</value></Data><Data name="name"><value>Южный речной вокзал</value></Data><Data name="name:da"><value>Sydlige flodterminal</value></Data><Data name="name:en"><value>Southern River Station</value></Data><Data name="tourism"><value>attraction</value></Data><Data name="wikidata"><value>Q4534176</value></Data><Data name="wikipedia"><value>ru:Южный_речной_вокзал</value></Data></ExtendedData></Placemark><Placemark><name>Жилой дом на Котельнической набережной</name><Point><coordinates>37.6427946,55.7469576</coordinates></Point><ExtendedData><Data name="@id"><value>node/266720662</value></Data><Data name="description:en"><value>Grand Stalinist high-rise aparment bloc, built 1938-1952. One of the so-called Seven Sisters.</value></Data><Data name="name"><value>Жилой дом на Котельнической набережной</value></Data><Data name="name:en"><value>Kotelnicheskaya Embankment Building</value></Data><Data name="tourism"><value>attraction</value></Data><Data name="wikidata"><value>Q2022067</value></Data><Data name="wikipedia"><value>ru:Жилой дом на Котельнической набережной</value></Data></ExtendedData></Placemark><Placemark><name>Особняк Миндовского</name><Point><coordinates>37.5886476,55.756784</coordinates></Point><ExtendedData><Data name="@id"><value>node/272669303</value></Data><Data name="name"><value>Особняк Миндовского</value></Data><Data name="name:en"><value>Mindovsky mansion</value></Data><Data name="tourism"><value>attraction</value></Data></ExtendedData></Placemark><Placemark><name>Царь-пушка</name><Point><coordinates>37.6179211,55.7514667</coordinates></Point><ExtendedData><Data name="@id"><value>node/311999396</value></Data><Data name="historic"><value>cannon</value></Data><Data name="name"><value>Царь-пушка</value></Data><Data name="name:be"><value>Цар-гармата</value></Data><Data name="name:chm"><value>Кугыжа-орудий</value></Data><Data name="name:de"><value>Zarenkanone</value></Data><Data name="name:en"><value>Tsar Cannon</value></Data><Data name="name:es"><value>cañón zar</value></Data><Data name="name:et"><value>Tsaar-suurtükk</value></Data><Data name="name:ru"><value>Царь-пушка</value></Data><Data name="name:sl"><value>Car-puška</value></Data><Data name="name:uk"><value>Цар-гармата</value></Data><Data name="tourism"><value>attraction</value></Data><Data name="wikidata"><value>Q147881</value></Data><Data name="wikipedia"><value>ru:Царь-пушка</value></Data></ExtendedData></Placemark><Placemark><name>Царь-колокол</name><Point><coordinates>37.6184908,55.7508375</coordinates></Point><ExtendedData><Data name="@id"><value>node/311999397</value></Data><Data name="name"><value>Царь-колокол</value></Data><Data name="name:be"><value>Цар-звон</value></Data><Data name="name:de"><value>Zarenglocke</value></Data><Data name="name:en"><value>Tsar Bell</value></Data><Data name="name:eo"><value>Caro-sonorilo</value></Data><Data name="name:es"><value>La Campana del Zar</value></Data><Data name="tourism"><value>attraction</value></Data><Data name="wheelchair"><value>yes</value></Data><Data name="wikidata"><value>Q147875</value></Data><Data name="wikipedia"><value>ru:Царь-колокол</value></Data></ExtendedData></Placemark><Placemark><name>А. С. Пушкину</name><Point><coordinates>37.6054856,55.7653354</coordinates></Point><ExtendedData><Data name="@id"><value>node/416562790</value></Data><Data name="historic"><value>memorial</value></Data><Data name="memorial"><value>statue</value></Data><Data name="name"><value>А. С. Пушкину</value></Data><Data name="name:de"><value>Denkmal für A. S. Puschkin</value></Data><Data name="tourism"><value>attraction</value></Data></ExtendedData></Placemark><Placemark><name>В. В. Маяковский</name><Point><coordinates>37.5956487,55.769621</coordinates></Point><ExtendedData><Data name="@id"><value>node/566683529</value></Data><Data name="historic"><value>memorial</value></Data><Data name="memorial"><value>statue</value></Data><Data name="name"><value>В. В. Маяковский</value></Data><Data name="tourism"><value>attraction</value></Data></ExtendedData></Placemark><Placemark><name>Нулевой километр</name><Point><coordinates>37.6176755,55.7558399</coordinates></Point><ExtendedData><Data name="@id"><value>node/583204619</value></Data><Data name="name"><value>Нулевой километр</value></Data><Data name="name:be"><value>Нулявы кіламетр</value></Data><Data name="name:de"><value>Kilometer Null</value></Data><Data name="name:en"><value>Kilometre zero</value></Data><Data name="name:es"><value>Kilómetro 0</value></Data><Data name="name:ru"><value>Нулевой километр</value></Data><Data name="tourism"><value>attraction</value></Data></ExtendedData></Placemark><Placemark><name>Городская усадьба Разумовского</name><description>Вост. флигель парадного дворца, 1800-1801 гг., 1841-1843 гг.</description><Point><coordinates>37.6689087,55.7626564</coordinates></Point><ExtendedData><Data name="@id"><value>node/601766365</value></Data><Data name="description"><value>Вост. флигель парадного дворца, 1800-1801 гг., 1841-1843 гг.</value></Data><Data name="description:en"><value>Eastern front wing of the palace, built 1800-1801, 1841-1843</value></Data><Data name="historic"><value>manor</value></Data><Data name="name"><value>Городская усадьба Разумовского</value></Data><Data name="name:en"><value>Razumovsky house</value></Data><Data name="tourism"><value>attraction</value></Data><Data name="wikidata"><value>Q4145444</value></Data><Data name="wikipedia"><value>ru:Городская усадьба Разумовского</value></Data></ExtendedData></Placemark><Placemark><name>Жилой дом с лавками</name><Point><coordinates>37.5833507,55.749739</coordinates></Point><ExtendedData><Data name="@id"><value>node/904570014</value></Data><Data name="historic"><value>heritage</value></Data><Data name="name"><value>Жилой дом с лавками</value></Data><Data name="name:en"><value>heritage buildings</value></Data><Data name="official_name"><value>Жилой дом с лавками Золотаревой И.С. - Финогеновых</value></Data><Data name="tourism"><value>attraction</value></Data><Data name="wikidata"><value>Q4310347</value></Data><Data name="wikipedia"><value>ru:Мясницкая_улица</value></Data></ExtendedData></Placemark><Placemark><name>Городская усадьба С.С. Гагарина</name><Point><coordinates>37.5891178,55.7559664</coordinates></Point><ExtendedData><Data name="@id"><value>node/904570109</value></Data><Data name="historic"><value>heritage</value></Data><Data name="name"><value>Городская усадьба С.С. Гагарина</value></Data><Data name="tourism"><value>attraction</value></Data></ExtendedData></Placemark><Placemark><name>Дети — жертвы пороков взрослых</name><Point><coordinates>37.6194741,55.7459623</coordinates></Point><ExtendedData><Data name="@id"><value>node/1081354475</value></Data><Data name="artist_name"><value>Михаил Шемякин</value></Data><Data name="historic"><value>memorial</value></Data><Data name="name"><value>Дети — жертвы пороков взрослых</value></Data><Data name="name:en"><value>The Children — Victims Of Adult Vices</value></Data><Data name="tourism"><value>attraction</value></Data></ExtendedData></Placemark><Placemark><name>Б. Ш. Окуджаве</name><Point><coordinates>37.5878316,55.748162</coordinates></Point><ExtendedData><Data name="@id"><value>node/1142662936</value></Data><Data name="en:description"><value>Monument to where lived Bulat Shalvovich Okudzhava, poet and musician 1924 - 1997</value></Data><Data name="historic"><value>memorial</value></Data><Data name="memorial"><value>statue</value></Data><Data name="name"><value>Б. Ш. Окуджаве</value></Data><Data name="name:en"><value>BS Okudzhava, poet/musician</value></Data><Data name="tourism"><value>attraction</value></Data></ExtendedData></Placemark><Placemark><name>Могилёвский дворик</name><Point><coordinates>37.7251764,55.7802502</coordinates></Point><ExtendedData><Data name="@id"><value>node/1359087023</value></Data><Data name="name"><value>Могилёвский дворик</value></Data><Data name="tourism"><value>attraction</value></Data></ExtendedData></Placemark><Placemark><name>Грот «Руины»</name><Point><coordinates>37.6153707,55.7537642</coordinates></Point><ExtendedData><Data name="@id"><value>node/1666070895</value></Data><Data name="alt_name"><value>Итальянский грот</value></Data><Data name="alt_name:en"><value>Itallian Grotto</value></Data><Data name="description:en"><value>Reminder of the War of 1812, lined with debris of Moscow buildings destroyed by Napoleon's army.</value></Data><Data name="historic"><value>ruins</value></Data><Data name="name"><value>Грот «Руины»</value></Data><Data name="name:en"><value>&quot;Ruins&quot; Grotto</value></Data><Data name="name:es"><value>ruinas de grotto</value></Data><Data name="tourism"><value>attraction</value></Data></ExtendedData></Placemark><Placemark><name>Эстрада</name><Point><coordinates>37.6593569,55.7688089</coordinates></Point><ExtendedData><Data name="@id"><value>node/1736632661</value></Data><Data name="name"><value>Эстрада</value></Data><Data name="name:en"><value>stage</value></Data><Data name="tourism"><value>attraction</value></Data></ExtendedData></Placemark><Placemark><name>Белые медведи</name><Point><coordinates>37.5817734,55.762846</coordinates></Point><ExtendedData><Data name="@id"><value>node/1838704625</value></Data><Data name="attraction"><value>animal</value></Data><Data name="is_in:zoo"><value>Московский зоопарк</value></Data><Data name="name"><value>Белые медведи</value></Data><Data name="name:de"><value>Eisbären</value></Data><Data name="name:en"><value>Polar Bears</value></Data><Data name="tourism"><value>attraction</value></Data></ExtendedData></Placemark><Placemark><name>Северные морские котики</name><Point><coordinates>37.5797725,55.7625502</coordinates></Point><ExtendedData><Data name="@id"><value>node/1838704634</value></Data><Data name="attraction"><value>animal</value></Data><Data name="is_in:zoo"><value>Московский зоопарк</value></Data><Data name="name"><value>Северные морские котики</value></Data><Data name="name:de"><value>Nördliche Seebären</value></Data><Data name="name:en"><value>Northern fur seals</value></Data><Data name="tourism"><value>attraction</value></Data></ExtendedData></Placemark><Placemark><name>Полярные совы</name><Point><coordinates>37.5812184,55.7628553</coordinates></Point><ExtendedData><Data name="@id"><value>node/1839631442</value></Data><Data name="attraction"><value>animal</value></Data><Data name="is_in:zoo"><value>Московский зоопарк</value></Data><Data name="name"><value>Полярные совы</value></Data><Data name="name:en"><value>Polar owls</value></Data><Data name="tourism"><value>attraction</value></Data></ExtendedData></Placemark><Placemark><name>Приматы</name><Point><coordinates>37.5833966,55.7622604</coordinates></Point><ExtendedData><Data name="@id"><value>node/1839631444</value></Data><Data name="attraction"><value>animal</value></Data><Data name="name"><value>Приматы</value></Data><Data name="name:de"><value>Affenhaus</value></Data><Data name="tourism"><value>attraction</value></Data></ExtendedData></Placemark><Placemark><name>Турья горка</name><Point><coordinates>37.5823827,55.7633498</coordinates></Point><ExtendedData><Data name="@id"><value>node/1839631447</value></Data><Data name="attraction"><value>animal</value></Data><Data name="is_in:zoo"><value>Московский зоопарк</value></Data><Data name="name"><value>Турья горка</value></Data><Data name="tourism"><value>attraction</value></Data></ExtendedData></Placemark><Placemark><name>Ленивцы</name><Point><coordinates>37.5795618,55.7626045</coordinates></Point><ExtendedData><Data name="@id"><value>node/1839631468</value></Data><Data name="attraction"><value>animal</value></Data><Data name="is_in:zoo"><value>Московский зоопарк</value></Data><Data name="name"><value>Ленивцы</value></Data><Data name="name:de"><value>Faultiere</value></Data><Data name="name:en"><value>Sloths</value></Data><Data name="tourism"><value>attraction</value></Data></ExtendedData></Placemark><Placemark><name>Экзотариум</name><Point><coordinates>37.5841846,55.7640925</coordinates></Point><ExtendedData><Data name="@id"><value>node/1839631470</value></Data><Data name="attraction"><value>animal</value></Data><Data name="name"><value>Экзотариум</value></Data><Data name="name:de"><value>Exotarrium</value></Data><Data name="name:en"><value>Exotarrium</value></Data><Data name="tourism"><value>attraction</value></Data></ExtendedData></Placemark><Placemark><name>Остров зверей</name><Point><coordinates>37.5837448,55.7640503</coordinates></Point><ExtendedData><Data name="@id"><value>node/1839631476</value></Data><Data name="attraction"><value>animal</value></Data><Data name="is_in:zoo"><value>Московский зоопарк</value></Data><Data name="name"><value>Остров зверей</value></Data><Data name="name:de"><value>Tierinsel</value></Data><Data name="name:en"><value>Animal Island</value></Data><Data name="tourism"><value>attraction</value></Data></ExtendedData></Placemark><Placemark><name>Ластоногие</name><Point><coordinates>37.5756503,55.7641529</coordinates></Point><ExtendedData><Data name="@id"><value>node/1845119769</value></Data><Data name="attraction"><value>animal</value></Data><Data name="is_in:zoo"><value>Московский зоопарк</value></Data><Data name="name"><value>Ластоногие</value></Data><Data name="name:de"><value>Robben</value></Data><Data name="name:en"><value>Sea Lions</value></Data><Data name="tourism"><value>attraction</value></Data></ExtendedData></Placemark><Placemark><name>Капибары</name><Point><coordinates>37.5790597,55.761906</coordinates></Point><ExtendedData><Data name="@id"><value>node/1845119770</value></Data><Data name="attraction"><value>animal</value></Data><Data name="is_in:zoo"><value>Московский зоопарк</value></Data><Data name="name"><value>Капибары</value></Data><Data name="name:de"><value>Wasserschweine</value></Data><Data name="name:en"><value>Capybaras</value></Data><Data name="tourism"><value>attraction</value></Data></ExtendedData></Placemark><Placemark><name>Журавли</name><Point><coordinates>37.578737,55.7627948</coordinates></Point><ExtendedData><Data name="@id"><value>node/1845119771</value></Data><Data name="attraction"><value>animal</value></Data><Data name="is_in:zoo"><value>Московский зоопарк</value></Data><Data name="name"><value>Журавли</value></Data><Data name="name:de"><value>Kraniche</value></Data><Data name="name:en"><value>Cranes</value></Data><Data name="tourism"><value>attraction</value></Data></ExtendedData></Placemark><Placemark><name>Японские макаки</name><Point><coordinates>37.5790074,55.7624191</coordinates></Point><ExtendedData><Data name="@id"><value>node/1845119772</value></Data><Data name="attraction"><value>animal</value></Data><Data name="is_in:zoo"><value>Московский зоопарк</value></Data><Data name="name"><value>Японские макаки</value></Data><Data name="name:de"><value>Japanmakak</value></Data><Data name="name:en"><value>Japanese Macaque</value></Data><Data name="tourism"><value>attraction</value></Data></ExtendedData></Placemark><Placemark><name>Кошки тропиков</name><Point><coordinates>37.5748676,55.7621541</coordinates></Point><ExtendedData><Data name="@id"><value>node/1845119773</value></Data><Data name="attraction"><value>animal</value></Data><Data name="is_in:zoo"><value>Московский зоопарк</value></Data><Data name="name"><value>Кошки тропиков</value></Data><Data name="name:de"><value>Tropische Katzen</value></Data><Data name="name:en"><value>Tropical cats</value></Data><Data name="tourism"><value>attraction</value></Data></ExtendedData></Placemark><Placemark><name>Кистеухие свиньи</name><Point><coordinates>37.5768573,55.7640293</coordinates></Point><ExtendedData><Data name="@id"><value>node/1845119778</value></Data><Data name="attraction"><value>animal</value></Data><Data name="name"><value>Кистеухие свиньи</value></Data><Data name="name:de"><value>Buschschweine</value></Data><Data name="tourism"><value>attraction</value></Data></ExtendedData></Placemark><Placemark><name>Непарнокопытные</name><Point><coordinates>37.5744594,55.7635945</coordinates></Point><ExtendedData><Data name="@id"><value>node/1845119782</value></Data><Data name="attraction"><value>animal</value></Data><Data name="is_in:zoo"><value>Московский зоопарк</value></Data><Data name="name"><value>Непарнокопытные</value></Data><Data name="name:de"><value>Unpaarhufer</value></Data><Data name="name:en"><value>Ungulates</value></Data><Data name="tourism"><value>attraction</value></Data></ExtendedData></Placemark><Placemark><name>Овцебыки</name><Point><coordinates>37.5754465,55.7636309</coordinates></Point><ExtendedData><Data name="@id"><value>node/1845119786</value></Data><Data name="attraction"><value>animal</value></Data><Data name="is_in:zoo"><value>Московский зоопарк</value></Data><Data name="name"><value>Овцебыки</value></Data><Data name="name:de"><value>Moschusochse</value></Data><Data name="name:en"><value>Musk oxen</value></Data><Data name="tourism"><value>attraction</value></Data></ExtendedData></Placemark><Placemark><name>Гепарды</name><Point><coordinates>37.5758381,55.7623269</coordinates></Point><ExtendedData><Data name="@id"><value>node/1845119797</value></Data><Data name="attraction"><value>animal</value></Data><Data name="is_in:zoo"><value>Московский зоопарк</value></Data><Data name="name"><value>Гепарды</value></Data><Data name="name:de"><value>Geparden</value></Data><Data name="name:en"><value>Cheetahs</value></Data><Data name="tourism"><value>attraction</value></Data></ExtendedData></Placemark><Placemark><name>Хищные птицы</name><Point><coordinates>37.576542,55.7627057</coordinates></Point><ExtendedData><Data name="@id"><value>node/1845119798</value></Data><Data name="attraction"><value>animal</value></Data><Data name="is_in:zoo"><value>Московский зоопарк</value></Data><Data name="name"><value>Хищные птицы</value></Data><Data name="name:de"><value>Raubvögel</value></Data><Data name="name:en"><value>Birds of Prey</value></Data><Data name="tourism"><value>attraction</value></Data></ExtendedData></Placemark><Placemark><name>Сумеречный мир</name><Point><coordinates>37.5780404,55.7632762</coordinates></Point><ExtendedData><Data name="@id"><value>node/1845119799</value></Data><Data name="attraction"><value>animal</value></Data><Data name="is_in:zoo"><value>Московский зоопарк</value></Data><Data name="name"><value>Сумеречный мир</value></Data><Data name="name:en"><value>Twilight World</value></Data><Data name="tourism"><value>attraction</value></Data></ExtendedData></Placemark><Placemark><name>Круг катания</name><Point><coordinates>37.5772738,55.7631271</coordinates></Point><ExtendedData><Data name="@id"><value>node/1845119800</value></Data><Data name="is_in:zoo"><value>Московский зоопарк</value></Data><Data name="name"><value>Круг катания</value></Data><Data name="name:en"><value>Skating rink</value></Data><Data name="tourism"><value>attraction</value></Data></ExtendedData></Placemark><Placemark><name>Дельфины</name><Point><coordinates>37.5751407,55.7645031</coordinates></Point><ExtendedData><Data name="@id"><value>node/1845119806</value></Data><Data name="attraction"><value>animal</value></Data><Data name="is_in:zoo"><value>Московский зоопарк</value></Data><Data name="name"><value>Дельфины</value></Data><Data name="name:de"><value>Delphine</value></Data><Data name="name:en"><value>Dolphins</value></Data><Data name="tourism"><value>attraction</value></Data></ExtendedData></Placemark><Placemark><name>Снежные козы</name><Point><coordinates>37.5762243,55.7634709</coordinates></Point><ExtendedData><Data name="@id"><value>node/1845119810</value></Data><Data name="attraction"><value>animal</value></Data><Data name="is_in:zoo"><value>Московский зоопарк</value></Data><Data name="name"><value>Снежные козы</value></Data><Data name="name:de"><value>Bergziegen</value></Data><Data name="name:en"><value>Mountain Goats</value></Data><Data name="tourism"><value>attraction</value></Data></ExtendedData></Placemark><Placemark><name>Кошачий и собачий ряд</name><Point><coordinates>37.575248,55.7630996</coordinates></Point><ExtendedData><Data name="@id"><value>node/1845119825</value></Data><Data name="attraction"><value>animal</value></Data><Data name="is_in:zoo"><value>Московский зоопарк</value></Data><Data name="name"><value>Кошачий и собачий ряд</value></Data><Data name="name:en"><value>Dogs and Cat Row</value></Data><Data name="tourism"><value>attraction</value></Data></ExtendedData></Placemark><Placemark><name>Антилопы</name><Point><coordinates>37.5758863,55.7631208</coordinates></Point><ExtendedData><Data name="@id"><value>node/1845119826</value></Data><Data name="attraction"><value>animal</value></Data><Data name="is_in:zoo"><value>Московский зоопарк</value></Data><Data name="name"><value>Антилопы</value></Data><Data name="name:de"><value>Antilopen</value></Data><Data name="name:en"><value>Antelopes</value></Data><Data name="tourism"><value>attraction</value></Data></ExtendedData></Placemark><Placemark><name>Очковые медведи</name><Point><coordinates>37.5748592,55.7626629</coordinates></Point><ExtendedData><Data name="@id"><value>node/1845119831</value></Data><Data name="attraction"><value>animal</value></Data><Data name="name"><value>Очковые медведи</value></Data><Data name="name:de"><value>Brillenbären</value></Data><Data name="tourism"><value>attraction</value></Data></ExtendedData></Placemark><Placemark><name>Волки</name><Point><coordinates>37.577858,55.7633758</coordinates></Point><ExtendedData><Data name="@id"><value>node/1845119835</value></Data><Data name="attraction"><value>animal</value></Data><Data name="is_in:zoo"><value>Московский зоопарк</value></Data><Data name="name"><value>Волки</value></Data><Data name="name:de"><value>Wölfe</value></Data><Data name="name:en"><value>Wolves</value></Data><Data name="tourism"><value>attraction</value></Data></ExtendedData></Placemark><Placemark><name>Ю. В. Никулину</name><Point><coordinates>37.6208914,55.7705893</coordinates></Point><ExtendedData><Data name="@id"><value>node/1869020674</value></Data><Data name="historic"><value>memorial</value></Data><Data name="memorial"><value>statue</value></Data><Data name="name"><value>Ю. В. Никулину</value></Data><Data name="name:en"><value>Nikoulin monument</value></Data><Data name="tourism"><value>attraction</value></Data></ExtendedData></Placemark><Placemark><name>Кремлёвские куранты</name><Point><coordinates>37.6214371,55.7525515</coordinates></Point><ExtendedData><Data name="@id"><value>node/1994968044</value></Data><Data name="amenity"><value>clock</value></Data><Data name="description:en"><value>Historic clock on the Spasskaya Tower of the Moscow Kremlin.. Source: Wikipedia:en</value></Data><Data name="display"><value>analog</value></Data><Data name="name"><value>Кремлёвские куранты</value></Data><Data name="name:en"><value>Kremlin Clock</value></Data><Data name="name:es"><value>Torre del Reloj</value></Data><Data name="name:ru"><value>Кремлёвские куранты</value></Data><Data name="name:zh"><value>克里姆林宫大钟楼</value></Data><Data name="support"><value>wall_mounted</value></Data><Data name="tourism"><value>attraction</value></Data><Data name="visibility"><value>area</value></Data><Data name="wikidata"><value>Q4507754</value></Data><Data name="wikipedia"><value>ru:Часы на Спасской башне</value></Data></ExtendedData></Placemark><Placemark><name>Экспериментальный каркасно-панельный жилой дом, прототип серии К-7</name><Point><coordinates>37.5773892,55.6892667</coordinates></Point><ExtendedData><Data name="@id"><value>node/2169414829</value></Data><Data name="name"><value>Экспериментальный каркасно-панельный жилой дом, прототип серии К-7</value></Data><Data name="tourism"><value>attraction</value></Data></ExtendedData></Placemark><Placemark><name>Узкоколейный тепловоз ТУ6А-2485</name><Point><coordinates>37.6901738,55.7164979</coordinates></Point><ExtendedData><Data name="@id"><value>node/2175086396</value></Data><Data name="historic"><value>monument</value></Data><Data name="name"><value>Узкоколейный тепловоз ТУ6А-2485</value></Data><Data name="tourism"><value>attraction</value></Data></ExtendedData></Placemark><Placemark><name>Горельефы Храма Христа Спасителя</name><Point><coordinates>37.603959,55.7152598</coordinates></Point><ExtendedData><Data name="@id"><value>node/2418895983</value></Data><Data name="description:en"><value>Bas-relief carvings of Christ the Savior</value></Data><Data name="name"><value>Горельефы Храма Христа Спасителя</value></Data><Data name="name:en"><value>Christ the Saviour bas-reliefs</value></Data><Data name="tourism"><value>attraction</value></Data></ExtendedData></Placemark><Placemark><name>Стена Цоя</name><Point><coordinates>37.5909566,55.7490457</coordinates></Point><ExtendedData><Data name="@id"><value>node/2624695929</value></Data><Data name="name"><value>Стена Цоя</value></Data><Data name="name:de"><value>Wiktor-Zoi-Mauer</value></Data><Data name="name:en"><value>Tsoi Wall</value></Data><Data name="name:ru"><value>Стена Цоя</value></Data><Data name="tourism"><value>attraction</value></Data><Data name="wikidata"><value>Q4441628</value></Data><Data name="wikipedia"><value>ru:Стена Цоя</value></Data></ExtendedData></Placemark><Placemark><name>Гараж Госплана архитектора Мельникова, 1936</name><Point><coordinates>37.7212093,55.7393041</coordinates></Point><ExtendedData><Data name="@id"><value>node/2627164621</value></Data><Data name="historic"><value>memorial</value></Data><Data name="name"><value>Гараж Госплана архитектора Мельникова, 1936</value></Data><Data name="name:en"><value>Gosplan Garage, 1936</value></Data><Data name="tourism"><value>attraction</value></Data></ExtendedData></Placemark><Placemark><name>Дом В.Б. Толстого</name><Point><coordinates>37.6587479,55.7590893</coordinates></Point><ExtendedData><Data name="@id"><value>node/2820064026</value></Data><Data name="historic"><value>manor</value></Data><Data name="name"><value>Дом В.Б. Толстого</value></Data><Data name="tourism"><value>attraction</value></Data></ExtendedData></Placemark><Placemark><name>Усадьба Измайлово</name><Point><coordinates>37.7610548,55.7919814</coordinates></Point><ExtendedData><Data name="@id"><value>node/3116081189</value></Data><Data name="alt_name"><value>Государев двор</value></Data><Data name="contact:email"><value>info@mgomz.ru</value></Data><Data name="contact:phone"><value>+7(499)165-13-36</value></Data><Data name="contact:website"><value>http://mgomz.ru/izmailovo</value></Data><Data name="name"><value>Усадьба Измайлово</value></Data><Data name="operator"><value>Московский государственный объединенный художественный историко-архитектурный и природно-ландшафтный музей-заповедник</value></Data><Data name="tourism"><value>attraction</value></Data><Data name="wikidata"><value>Q4198639</value></Data><Data name="wikipedia"><value>ru:Измайлово (усадьба)</value></Data></ExtendedData></Placemark><Placemark><name>Историческое здание Воскресной школы Данилова монастыря</name><Point><coordinates>37.6307689,55.7117846</coordinates></Point><ExtendedData><Data name="@id"><value>node/3444915431</value></Data><Data name="name"><value>Историческое здание Воскресной школы Данилова монастыря</value></Data><Data name="tourism"><value>attraction</value></Data></ExtendedData></Placemark><Placemark><name>Клаустрофобия</name><Point><coordinates>37.5964926,55.7128221</coordinates></Point><ExtendedData><Data name="@id"><value>node/3475533464</value></Data><Data name="name"><value>Клаустрофобия</value></Data><Data name="phone"><value>+7 966 0999464</value></Data><Data name="source"><value>mapillary</value></Data><Data name="tourism"><value>attraction</value></Data><Data name="website"><value>http://bunker.phobia.ru</value></Data></ExtendedData></Placemark><Placemark><name>Городская усадьба</name><Point><coordinates>37.6218636,55.7258842</coordinates></Point><ExtendedData><Data name="@id"><value>node/3476403305</value></Data><Data name="name"><value>Городская усадьба</value></Data><Data name="tourism"><value>attraction</value></Data></ExtendedData></Placemark><Placemark><Point><coordinates>37.5878544,55.7262</coordinates></Point><ExtendedData><Data name="@id"><value>node/3646401099</value></Data><Data name="barrier"><value>gate</value></Data><Data name="bicycle"><value>yes</value></Data><Data name="foot"><value>yes</value></Data><Data name="tourism"><value>attraction</value></Data></ExtendedData></Placemark><Placemark><name>Поклонный крест</name><Point><coordinates>37.627307,55.76648</coordinates></Point><ExtendedData><Data name="@id"><value>node/3655168525</value></Data><Data name="name"><value>Поклонный крест</value></Data><Data name="tourism"><value>attraction</value></Data></ExtendedData></Placemark><Placemark><name>Конвой</name><Point><coordinates>37.6724293,55.7937227</coordinates></Point><ExtendedData><Data name="@id"><value>node/3676261268</value></Data><Data name="name"><value>Конвой</value></Data><Data name="tourism"><value>attraction</value></Data></ExtendedData></Placemark><Placemark><name>Скамья примирения</name><Point><coordinates>37.6189697,55.7441078</coordinates></Point><ExtendedData><Data name="@id"><value>node/3744711931</value></Data><Data name="amenity"><value>bench</value></Data><Data name="name"><value>Скамья примирения</value></Data><Data name="tourism"><value>attraction</value></Data></ExtendedData></Placemark><Placemark><name>Бывший храм Николая Чудотворца</name><Point><coordinates>37.626761,55.7228981</coordinates></Point><ExtendedData><Data name="@id"><value>node/3773487168</value></Data><Data name="name"><value>Бывший храм Николая Чудотворца</value></Data><Data name="tourism"><value>attraction</value></Data></ExtendedData></Placemark><Placemark><name>Я люблю Москву</name><Point><coordinates>37.5511574,55.7554797</coordinates></Point><ExtendedData><Data name="@id"><value>node/3811194800</value></Data><Data name="name"><value>Я люблю Москву</value></Data><Data name="tourism"><value>attraction</value></Data></ExtendedData></Placemark><Placemark><name>Пингвины</name><Point><coordinates>37.5743856,55.7649637</coordinates></Point><ExtendedData><Data name="@id"><value>node/3865068510</value></Data><Data name="attraction"><value>animal</value></Data><Data name="name"><value>Пингвины</value></Data><Data name="name:de"><value>Pinguine</value></Data><Data name="name:en"><value>Penguins</value></Data><Data name="tourism"><value>attraction</value></Data></ExtendedData></Placemark><Placemark><name>Болотная сова</name><Point><coordinates>37.5785179,55.7630395</coordinates></Point><ExtendedData><Data name="@id"><value>node/3865151367</value></Data><Data name="attraction"><value>animal</value></Data><Data name="is_in:zoo"><value>Московский зоопарк</value></Data><Data name="name"><value>Болотная сова</value></Data><Data name="name:de"><value>Sumpfohreule</value></Data><Data name="tourism"><value>attraction</value></Data></ExtendedData></Placemark><Placemark><name>Ворон</name><Point><coordinates>37.5781734,55.7632449</coordinates></Point><ExtendedData><Data name="@id"><value>node/3865151368</value></Data><Data name="attraction"><value>animal</value></Data><Data name="is_in:zoo"><value>Московский зоопарк</value></Data><Data name="name"><value>Ворон</value></Data><Data name="name:de"><value>Rabe</value></Data><Data name="name:en"><value>Raven</value></Data><Data name="tourism"><value>attraction</value></Data></ExtendedData></Placemark><Placemark><name>Куница</name><Point><coordinates>37.5783683,55.7632087</coordinates></Point><ExtendedData><Data name="@id"><value>node/3865151369</value></Data><Data name="attraction"><value>animal</value></Data><Data name="is_in:zoo"><value>Московский зоопарк</value></Data><Data name="name"><value>Куница</value></Data><Data name="name:de"><value>Marder</value></Data><Data name="name:en"><value>Marten</value></Data><Data name="tourism"><value>attraction</value></Data></ExtendedData></Placemark><Placemark><name>Лесной хорь</name><Point><coordinates>37.5784989,55.7631109</coordinates></Point><ExtendedData><Data name="@id"><value>node/3865151370</value></Data><Data name="attraction"><value>animal</value></Data><Data name="is_in:zoo"><value>Московский зоопарк</value></Data><Data name="name"><value>Лесной хорь</value></Data><Data name="name:de"><value>Waldiltis</value></Data><Data name="tourism"><value>attraction</value></Data></ExtendedData></Placemark><Placemark><name>Соболь</name><Point><coordinates>37.5782785,55.763235</coordinates></Point><ExtendedData><Data name="@id"><value>node/3865151372</value></Data><Data name="attraction"><value>animal</value></Data><Data name="is_in:zoo"><value>Московский зоопарк</value></Data><Data name="name"><value>Соболь</value></Data><Data name="name:de"><value>Zobel</value></Data><Data name="name:en"><value>Sable</value></Data><Data name="tourism"><value>attraction</value></Data></ExtendedData></Placemark><Placemark><name>Степной кот</name><Point><coordinates>37.5784473,55.7631652</coordinates></Point><ExtendedData><Data name="@id"><value>node/3865151373</value></Data><Data name="attraction"><value>animal</value></Data><Data name="is_in:zoo"><value>Московский зоопарк</value></Data><Data name="name"><value>Степной кот</value></Data><Data name="name:de"><value>Steppenkatze</value></Data><Data name="tourism"><value>attraction</value></Data></ExtendedData></Placemark><Placemark><name>Фламинго</name><Point><coordinates>37.5763194,55.7621525</coordinates></Point><ExtendedData><Data name="@id"><value>node/3865151374</value></Data><Data name="attraction"><value>animal</value></Data><Data name="is_in:zoo"><value>Московский зоопарк</value></Data><Data name="name"><value>Фламинго</value></Data><Data name="name:en"><value>Flamingos</value></Data><Data name="tourism"><value>attraction</value></Data></ExtendedData></Placemark><Placemark><name>Винторогий козёл</name><Point><coordinates>37.5818947,55.763329</coordinates></Point><ExtendedData><Data name="@id"><value>node/3865153057</value></Data><Data name="attraction"><value>animal</value></Data><Data name="is_in:zoo"><value>Московский зоопарк</value></Data><Data name="name"><value>Винторогий козёл</value></Data><Data name="tourism"><value>attraction</value></Data></ExtendedData></Placemark><Placemark><name>Выдра</name><Point><coordinates>37.5802655,55.7626348</coordinates></Point><ExtendedData><Data name="@id"><value>node/3865153058</value></Data><Data name="attraction"><value>animal</value></Data><Data name="is_in:zoo"><value>Московский зоопарк</value></Data><Data name="name"><value>Выдра</value></Data><Data name="tourism"><value>attraction</value></Data></ExtendedData></Placemark><Placemark><name>Земляные утки</name><Point><coordinates>37.5799205,55.7630796</coordinates></Point><ExtendedData><Data name="@id"><value>node/3865153060</value></Data><Data name="attraction"><value>animal</value></Data><Data name="is_in:zoo"><value>Московский зоопарк</value></Data><Data name="name"><value>Земляные утки</value></Data><Data name="tourism"><value>attraction</value></Data></ExtendedData></Placemark><Placemark><name>Красноухая черепаха</name><Point><coordinates>37.5810008,55.7632241</coordinates></Point><ExtendedData><Data name="@id"><value>node/3865153061</value></Data><Data name="attraction"><value>animal</value></Data><Data name="is_in:zoo"><value>Московский зоопарк</value></Data><Data name="name"><value>Красноухая черепаха</value></Data><Data name="tourism"><value>attraction</value></Data></ExtendedData></Placemark><Placemark><name>Магелланов гусь</name><Point><coordinates>37.5797871,55.7625994</coordinates></Point><ExtendedData><Data name="@id"><value>node/3865153062</value></Data><Data name="attraction"><value>animal</value></Data><Data name="is_in:zoo"><value>Московский зоопарк</value></Data><Data name="name"><value>Магелланов гусь</value></Data><Data name="name:de"><value>Magellangans</value></Data><Data name="tourism"><value>attraction</value></Data></ExtendedData></Placemark><Placemark><name>Нырковые утки</name><Point><coordinates>37.5803813,55.7630173</coordinates></Point><ExtendedData><Data name="@id"><value>node/3865153063</value></Data><Data name="attraction"><value>animal</value></Data><Data name="is_in:zoo"><value>Московский зоопарк</value></Data><Data name="name"><value>Нырковые утки</value></Data><Data name="tourism"><value>attraction</value></Data></ExtendedData></Placemark><Placemark><name>Птицы и бабочки тропиков</name><Point><coordinates>37.5821113,55.7639041</coordinates></Point><ExtendedData><Data name="@id"><value>node/3865153064</value></Data><Data name="attraction"><value>animal</value></Data><Data name="is_in:zoo"><value>Московский зоопарк</value></Data><Data name="name"><value>Птицы и бабочки тропиков</value></Data><Data name="tourism"><value>attraction</value></Data></ExtendedData></Placemark><Placemark><name>Речные утки</name><Point><coordinates>37.5808749,55.7629493</coordinates></Point><ExtendedData><Data name="@id"><value>node/3865153065</value></Data><Data name="attraction"><value>animal</value></Data><Data name="is_in:zoo"><value>Московский зоопарк</value></Data><Data name="name"><value>Речные утки</value></Data><Data name="tourism"><value>attraction</value></Data></ExtendedData></Placemark><Placemark><name>Рыжая свистящая утка</name><Point><coordinates>37.5822422,55.7637157</coordinates></Point><ExtendedData><Data name="@id"><value>node/3865153066</value></Data><Data name="attraction"><value>animal</value></Data><Data name="is_in:zoo"><value>Московский зоопарк</value></Data><Data name="name"><value>Рыжая свистящая утка</value></Data><Data name="tourism"><value>attraction</value></Data></ExtendedData></Placemark><Placemark><name>Сизая чайка</name><Point><coordinates>37.5801497,55.7631136</coordinates></Point><ExtendedData><Data name="@id"><value>node/3865153067</value></Data><Data name="attraction"><value>animal</value></Data><Data name="is_in:zoo"><value>Московский зоопарк</value></Data><Data name="name"><value>Сизая чайка</value></Data><Data name="tourism"><value>attraction</value></Data></ExtendedData></Placemark><Placemark><name>Харза</name><Point><coordinates>37.5805123,55.7626999</coordinates></Point><ExtendedData><Data name="@id"><value>node/3865153068</value></Data><Data name="attraction"><value>animal</value></Data><Data name="is_in:zoo"><value>Московский зоопарк</value></Data><Data name="name"><value>Харза</value></Data><Data name="tourism"><value>attraction</value></Data></ExtendedData></Placemark><Placemark><name>Чайки</name><Point><coordinates>37.5825091,55.7639041</coordinates></Point><ExtendedData><Data name="@id"><value>node/3865153069</value></Data><Data name="attraction"><value>animal</value></Data><Data name="is_in:zoo"><value>Московский зоопарк</value></Data><Data name="name"><value>Чайки</value></Data><Data name="tourism"><value>attraction</value></Data></ExtendedData></Placemark><Placemark><name>Домашний осёл</name><Point><coordinates>37.5850649,55.7633686</coordinates></Point><ExtendedData><Data name="@id"><value>node/3865175067</value></Data><Data name="attraction"><value>animal</value></Data><Data name="is_in:zoo"><value>Московский зоопарк</value></Data><Data name="name"><value>Домашний осёл</value></Data><Data name="tourism"><value>attraction</value></Data></ExtendedData></Placemark><Placemark><name>Домашняя лошадь</name><Point><coordinates>37.5846735,55.762928</coordinates></Point><ExtendedData><Data name="@id"><value>node/3865175068</value></Data><Data name="attraction"><value>animal</value></Data><Data name="is_in:zoo"><value>Московский зоопарк</value></Data><Data name="name"><value>Домашняя лошадь</value></Data><Data name="tourism"><value>attraction</value></Data></ExtendedData></Placemark><Placemark><name>Животные Африки</name><Point><coordinates>37.5840728,55.7633006</coordinates></Point><ExtendedData><Data name="@id"><value>node/3865175069</value></Data><Data name="attraction"><value>animal</value></Data><Data name="is_in:zoo"><value>Московский зоопарк</value></Data><Data name="name"><value>Животные Африки</value></Data><Data name="tourism"><value>attraction</value></Data></ExtendedData></Placemark><Placemark><name>Будда</name><Point><coordinates>37.6291567,55.7776805</coordinates></Point><ExtendedData><Data name="@id"><value>node/3955348430</value></Data><Data name="historic"><value>memorial</value></Data><Data name="name"><value>Будда</value></Data><Data name="religion"><value>buddhist</value></Data><Data name="tourism"><value>attraction</value></Data></ExtendedData></Placemark><Placemark><name>Клаустрофобия</name><Point><coordinates>37.6310317,55.7450593</coordinates></Point><ExtendedData><Data name="@id"><value>node/4024220595</value></Data><Data name="attraction"><value>escape_room</value></Data><Data name="contact:website"><value>http://phobia.ru</value></Data><Data name="name"><value>Клаустрофобия</value></Data><Data name="tourism"><value>attraction</value></Data></ExtendedData></Placemark><Placemark><name>Парашютная вышка «Ёлка»</name><Point><coordinates>37.6038809,55.7293187</coordinates></Point><ExtendedData><Data name="@id"><value>node/4187406887</value></Data><Data name="name"><value>Парашютная вышка «Ёлка»</value></Data><Data name="tourism"><value>attraction</value></Data></ExtendedData></Placemark><Placemark><name>Грот графа Орлова</name><Point><coordinates>37.5878885,55.7182249</coordinates></Point><ExtendedData><Data name="@id"><value>node/4217394291</value></Data><Data name="fixme"><value>position</value></Data><Data name="name"><value>Грот графа Орлова</value></Data><Data name="tourism"><value>attraction</value></Data><Data name="website"><value>http://park-gorkogo.com/places/48</value></Data></ExtendedData></Placemark><Placemark><name>Палаты Кожевенной слободы</name><Point><coordinates>37.6507417,55.7293079</coordinates></Point><ExtendedData><Data name="@id"><value>node/4220359698</value></Data><Data name="addr:city"><value>Москва</value></Data><Data name="addr:housenumber"><value>19 с6</value></Data><Data name="addr:street"><value>Кожевническая улица</value></Data><Data name="name"><value>Палаты Кожевенной слободы</value></Data><Data name="tourism"><value>attraction</value></Data><Data name="wikidata"><value>Q19915831</value></Data><Data name="wikipedia"><value>ru:Палаты Кожевенной слободы</value></Data></ExtendedData></Placemark><Placemark><name>Городское училище (конец XIX в.)</name><Point><coordinates>37.6837013,55.7879741</coordinates></Point><ExtendedData><Data name="@id"><value>node/4255259891</value></Data><Data name="name"><value>Городское училище (конец XIX в.)</value></Data><Data name="tourism"><value>attraction</value></Data></ExtendedData></Placemark><Placemark><name>Пушкинский дуб</name><description>200 year old tree</description><Point><coordinates>37.6007325,55.7597728</coordinates></Point><ExtendedData><Data name="@id"><value>node/4262313478</value></Data><Data name="description"><value>200 year old tree</value></Data><Data name="genus"><value>Quercus</value></Data><Data name="leaf_cycle"><value>deciduous</value></Data><Data name="leaf_type"><value>broadleaved</value></Data><Data name="name"><value>Пушкинский дуб</value></Data><Data name="natural"><value>tree</value></Data><Data name="tourism"><value>attraction</value></Data><Data name="wikidata"><value>Q18524261</value></Data><Data name="wikipedia"><value>ru:Пушкинский дуб</value></Data></ExtendedData></Placemark><Placemark><name>Россомахи</name><Point><coordinates>37.5823839,55.7626452</coordinates></Point><ExtendedData><Data name="@id"><value>node/4285644707</value></Data><Data name="name"><value>Россомахи</value></Data><Data name="tourism"><value>attraction</value></Data></ExtendedData></Placemark><Placemark><name>Олени Давида</name><Point><coordinates>37.5843783,55.7645122</coordinates></Point><ExtendedData><Data name="@id"><value>node/4285644900</value></Data><Data name="name"><value>Олени Давида</value></Data><Data name="tourism"><value>attraction</value></Data></ExtendedData></Placemark><Placemark><name>Такины</name><Point><coordinates>37.5839582,55.7646396</coordinates></Point><ExtendedData><Data name="@id"><value>node/4285650404</value></Data><Data name="name"><value>Такины</value></Data><Data name="tourism"><value>attraction</value></Data></ExtendedData></Placemark><Placemark><name>Хищные птицы</name><Point><coordinates>37.582126,55.7627455</coordinates></Point><ExtendedData><Data name="@id"><value>node/4285653619</value></Data><Data name="name"><value>Хищные птицы</value></Data><Data name="tourism"><value>attraction</value></Data></ExtendedData></Placemark><Placemark><name>Лошади Пржевальского</name><Point><coordinates>37.5834685,55.7645509</coordinates></Point><ExtendedData><Data name="@id"><value>node/4285662489</value></Data><Data name="name"><value>Лошади Пржевальского</value></Data><Data name="tourism"><value>attraction</value></Data></ExtendedData></Placemark><Placemark><name>Сурикаты</name><Point><coordinates>37.5838286,55.7632146</coordinates></Point><ExtendedData><Data name="@id"><value>node/4285662589</value></Data><Data name="name"><value>Сурикаты</value></Data><Data name="tourism"><value>attraction</value></Data></ExtendedData></Placemark><Placemark><name>Медведи</name><Point><coordinates>37.5835385,55.7643346</coordinates></Point><ExtendedData><Data name="@id"><value>node/4285731291</value></Data><Data name="name"><value>Медведи</value></Data><Data name="tourism"><value>attraction</value></Data></ExtendedData></Placemark><Placemark><name>Тигры</name><Point><coordinates>37.583891,55.7639258</coordinates></Point><ExtendedData><Data name="@id"><value>node/4285731292</value></Data><Data name="name"><value>Тигры</value></Data><Data name="tourism"><value>attraction</value></Data></ExtendedData></Placemark><Placemark><name>Львы</name><Point><coordinates>37.5839243,55.7644082</coordinates></Point><ExtendedData><Data name="@id"><value>node/4285752290</value></Data><Data name="name"><value>Львы</value></Data><Data name="tourism"><value>attraction</value></Data></ExtendedData></Placemark><Placemark><name>KidZania</name><Point><coordinates>37.531718,55.790296</coordinates></Point><ExtendedData><Data name="@id"><value>node/4285859090</value></Data><Data name="name"><value>KidZania</value></Data><Data name="tourism"><value>attraction</value></Data></ExtendedData></Placemark><Placemark><name>Волки</name><Point><coordinates>37.5843558,55.7642046</coordinates></Point><ExtendedData><Data name="@id"><value>node/4286072392</value></Data><Data name="name"><value>Волки</value></Data><Data name="tourism"><value>attraction</value></Data></ExtendedData></Placemark><Placemark><name>Пеликаны</name><Point><coordinates>37.5815967,55.7635042</coordinates></Point><ExtendedData><Data name="@id"><value>node/4286089691</value></Data><Data name="name"><value>Пеликаны</value></Data><Data name="tourism"><value>attraction</value></Data></ExtendedData></Placemark><Placemark><name>Жирафы</name><Point><coordinates>37.5837347,55.7636264</coordinates></Point><ExtendedData><Data name="@id"><value>node/4286097196</value></Data><Data name="name"><value>Жирафы</value></Data><Data name="tourism"><value>attraction</value></Data></ExtendedData></Placemark><Placemark><name>Обезьянник</name><Point><coordinates>37.5830897,55.7627656</coordinates></Point><ExtendedData><Data name="@id"><value>node/4286097197</value></Data><Data name="name"><value>Обезьянник</value></Data><Data name="tourism"><value>attraction</value></Data></ExtendedData></Placemark><Placemark><name>Дагестанский тур</name><Point><coordinates>37.5824635,55.7631835</coordinates></Point><ExtendedData><Data name="@id"><value>node/4286104590</value></Data><Data name="name"><value>Дагестанский тур</value></Data><Data name="tourism"><value>attraction</value></Data></ExtendedData></Placemark><Placemark><name>Шакалы</name><Point><coordinates>37.5833813,55.7642547</coordinates></Point><ExtendedData><Data name="@id"><value>node/4286108490</value></Data><Data name="name"><value>Шакалы</value></Data><Data name="tourism"><value>attraction</value></Data></ExtendedData></Placemark><Placemark><name>Гуанакко</name><Point><coordinates>37.5789733,55.7617875</coordinates></Point><ExtendedData><Data name="@id"><value>node/4286109689</value></Data><Data name="attraction"><value>animal</value></Data><Data name="name"><value>Гуанакко</value></Data><Data name="tourism"><value>attraction</value></Data></ExtendedData></Placemark><Placemark><name>Дикобразы</name><Point><coordinates>37.5825711,55.7634688</coordinates></Point><ExtendedData><Data name="@id"><value>node/4286109789</value></Data><Data name="name"><value>Дикобразы</value></Data><Data name="tourism"><value>attraction</value></Data></ExtendedData></Placemark><Placemark><name>Зебры</name><Point><coordinates>37.5838458,55.7636068</coordinates></Point><ExtendedData><Data name="@id"><value>node/4287130590</value></Data><Data name="name"><value>Зебры</value></Data><Data name="tourism"><value>attraction</value></Data></ExtendedData></Placemark><Placemark><name>Чёрные антилопы</name><Point><coordinates>37.584168,55.763681</coordinates></Point><ExtendedData><Data name="@id"><value>node/4287131089</value></Data><Data name="name"><value>Чёрные антилопы</value></Data><Data name="tourism"><value>attraction</value></Data></ExtendedData></Placemark><Placemark><name>Гривистый волк</name><Point><coordinates>37.5751174,55.7635082</coordinates></Point><ExtendedData><Data name="@id"><value>node/4287294148</value></Data><Data name="name"><value>Гривистый волк</value></Data><Data name="tourism"><value>attraction</value></Data></ExtendedData></Placemark><Placemark><name>Еноты</name><Point><coordinates>37.5750159,55.7641587</coordinates></Point><ExtendedData><Data name="@id"><value>node/4287413393</value></Data><Data name="name"><value>Еноты</value></Data><Data name="tourism"><value>attraction</value></Data></ExtendedData></Placemark><Placemark><name>Гиеновая собака</name><Point><coordinates>37.575101,55.7635754</coordinates></Point><ExtendedData><Data name="@id"><value>node/4287413493</value></Data><Data name="name"><value>Гиеновая собака</value></Data><Data name="tourism"><value>attraction</value></Data></ExtendedData></Placemark><Placemark><name>Полосатая гиена</name><Point><coordinates>37.5843213,55.7639241</coordinates></Point><ExtendedData><Data name="@id"><value>node/4287508477</value></Data><Data name="name"><value>Полосатая гиена</value></Data><Data name="tourism"><value>attraction</value></Data></ExtendedData></Placemark><Placemark><name>Аллея звёзд отечественного кинематографа</name><Point><coordinates>37.5296877,55.7239163</coordinates></Point><ExtendedData><Data name="@id"><value>node/4306250095</value></Data><Data name="name"><value>Аллея звёзд отечественного кинематографа</value></Data><Data name="tourism"><value>attraction</value></Data></ExtendedData></Placemark><Placemark><name>Горки</name><Point><coordinates>37.7491723,55.7860417</coordinates></Point><ExtendedData><Data name="@id"><value>node/4369839238</value></Data><Data name="name"><value>Горки</value></Data><Data name="tourism"><value>attraction</value></Data></ExtendedData></Placemark><Placemark><name>Паровоз</name><Point><coordinates>37.7512765,55.7864165</coordinates></Point><ExtendedData><Data name="@id"><value>node/4369846215</value></Data><Data name="name"><value>Паровоз</value></Data><Data name="tourism"><value>attraction</value></Data></ExtendedData></Placemark><Placemark><name>Симулятор</name><Point><coordinates>37.7516393,55.7862118</coordinates></Point><ExtendedData><Data name="@id"><value>node/4369846216</value></Data><Data name="name"><value>Симулятор</value></Data><Data name="tourism"><value>attraction</value></Data></ExtendedData></Placemark><Placemark><name>Скатная гора</name><Point><coordinates>37.7513107,55.7860655</coordinates></Point><ExtendedData><Data name="@id"><value>node/4369850788</value></Data><Data name="name"><value>Скатная гора</value></Data><Data name="tourism"><value>attraction</value></Data></ExtendedData></Placemark><Placemark><name>Солнышко</name><Point><coordinates>37.7515092,55.7861296</coordinates></Point><ExtendedData><Data name="@id"><value>node/4369850889</value></Data><Data name="name"><value>Солнышко</value></Data><Data name="tourism"><value>attraction</value></Data></ExtendedData></Placemark><Placemark><name>Летающие слоны</name><Point><coordinates>37.7521669,55.7807213</coordinates></Point><ExtendedData><Data name="@id"><value>node/4369879832</value></Data><Data name="name"><value>Летающие слоны</value></Data><Data name="tourism"><value>attraction</value></Data></ExtendedData></Placemark><Placemark><name>Волшебный полёт</name><Point><coordinates>37.7523935,55.7818427</coordinates></Point><ExtendedData><Data name="@id"><value>node/4369880516</value></Data><Data name="name"><value>Волшебный полёт</value></Data><Data name="tourism"><value>attraction</value></Data></ExtendedData></Placemark><Placemark><name>Цепочка</name><Point><coordinates>37.752415,55.781713</coordinates></Point><ExtendedData><Data name="@id"><value>node/4369880517</value></Data><Data name="name"><value>Цепочка</value></Data><Data name="tourism"><value>attraction</value></Data></ExtendedData></Placemark><Placemark><name>Зорб</name><Point><coordinates>37.7519214,55.7816889</coordinates></Point><ExtendedData><Data name="@id"><value>node/4369880522</value></Data><Data name="name"><value>Зорб</value></Data><Data name="tourism"><value>attraction</value></Data></ExtendedData></Placemark><Placemark><name>Семейная карусель</name><Point><coordinates>37.7518946,55.7818337</coordinates></Point><ExtendedData><Data name="@id"><value>node/4369880523</value></Data><Data name="name"><value>Семейная карусель</value></Data><Data name="tourism"><value>attraction</value></Data></ExtendedData></Placemark><Placemark><name>Каноэ ривер</name><Point><coordinates>37.7526027,55.7807808</coordinates></Point><ExtendedData><Data name="@id"><value>node/4369881313</value></Data><Data name="name"><value>Каноэ ривер</value></Data><Data name="tourism"><value>attraction</value></Data></ExtendedData></Placemark><Placemark><name>Призовой аттракцион</name><Point><coordinates>37.7520435,55.7810229</coordinates></Point><ExtendedData><Data name="@id"><value>node/4369883634</value></Data><Data name="name"><value>Призовой аттракцион</value></Data><Data name="tourism"><value>attraction</value></Data></ExtendedData></Placemark><Placemark><name>Узкоколейный вагон ПВ-40</name><Point><coordinates>37.6898604,55.7164256</coordinates></Point><ExtendedData><Data name="@id"><value>node/4404186219</value></Data><Data name="historic"><value>monument</value></Data><Data name="name"><value>Узкоколейный вагон ПВ-40</value></Data><Data name="tourism"><value>attraction</value></Data></ExtendedData></Placemark><Placemark><name>Верблюд и лошади Пржевальского</name><Point><coordinates>37.5833739,55.7645134</coordinates></Point><ExtendedData><Data name="@id"><value>node/4418685089</value></Data><Data name="name"><value>Верблюд и лошади Пржевальского</value></Data><Data name="tourism"><value>attraction</value></Data></ExtendedData></Placemark><Placemark><name>Старый пассажирский вокзал станции Андроновка</name><Point><coordinates>37.7327191,55.7411465</coordinates></Point><ExtendedData><Data name="@id"><value>node/4449855643</value></Data><Data name="name"><value>Старый пассажирский вокзал станции Андроновка</value></Data><Data name="tourism"><value>attraction</value></Data></ExtendedData></Placemark><Placemark><name>Второй &quot;круглый&quot; дом</name><Point><coordinates>37.5127149,55.7219814</coordinates></Point><ExtendedData><Data name="@id"><value>node/4511608906</value></Data><Data name="name"><value>Второй &quot;круглый&quot; дом</value></Data><Data name="tourism"><value>attraction</value></Data></ExtendedData></Placemark><Placemark><name>Гуси</name><Point><coordinates>37.5834297,55.7604011</coordinates></Point><ExtendedData><Data name="@id"><value>node/4523601546</value></Data><Data name="name"><value>Гуси</value></Data><Data name="tourism"><value>attraction</value></Data></ExtendedData></Placemark><Placemark><name>Фазаны</name><Point><coordinates>37.5831186,55.7604901</coordinates></Point><ExtendedData><Data name="@id"><value>node/4523601547</value></Data><Data name="name"><value>Фазаны</value></Data><Data name="tourism"><value>attraction</value></Data></ExtendedData></Placemark><Placemark><name>Домашние птицы</name><Point><coordinates>37.5835075,55.7607474</coordinates></Point><ExtendedData><Data name="@id"><value>node/4523604269</value></Data><Data name="name"><value>Домашние птицы</value></Data><Data name="tourism"><value>attraction</value></Data></ExtendedData></Placemark><Placemark><name>Шиншиллы</name><Point><coordinates>37.5845106,55.7605165</coordinates></Point><ExtendedData><Data name="@id"><value>node/4523605216</value></Data><Data name="name"><value>Шиншиллы</value></Data><Data name="tourism"><value>attraction</value></Data></ExtendedData></Placemark><Placemark><name>Экзотические лягушки</name><Point><coordinates>37.57671,55.7653519</coordinates></Point><ExtendedData><Data name="@id"><value>node/4528647814</value></Data><Data name="name"><value>Экзотические лягушки</value></Data><Data name="tourism"><value>attraction</value></Data></ExtendedData></Placemark><Placemark><name>Пожарная каланча (1884г)</name><Point><coordinates>37.6818134,55.7892659</coordinates></Point><ExtendedData><Data name="@id"><value>node/4541543849</value></Data><Data name="name"><value>Пожарная каланча (1884г)</value></Data><Data name="tourism"><value>attraction</value></Data><Data name="wikidata"><value>Q19916582</value></Data><Data name="wikipedia"><value>ru:Сокольническая пожарная каланча</value></Data></ExtendedData></Placemark><Placemark><name>Аквариум осетровых рыб</name><Point><coordinates>37.5815817,55.7632369</coordinates></Point><ExtendedData><Data name="@id"><value>node/4544542365</value></Data><Data name="attraction"><value>animal</value></Data><Data name="is_in:zoo"><value>Московский зоопарк</value></Data><Data name="name"><value>Аквариум осетровых рыб</value></Data><Data name="name:en"><value>Sturgeons</value></Data><Data name="tourism"><value>attraction</value></Data></ExtendedData></Placemark><Placemark><name>Грот Растрелли</name><Point><coordinates>37.6899199,55.7637698</coordinates></Point><ExtendedData><Data name="@id"><value>node/4558783254</value></Data><Data name="name"><value>Грот Растрелли</value></Data><Data name="tourism"><value>attraction</value></Data></ExtendedData></Placemark><Placemark><name>Плотина Венеры</name><Point><coordinates>37.6891715,55.7631571</coordinates></Point><ExtendedData><Data name="@id"><value>node/4558783255</value></Data><Data name="name"><value>Плотина Венеры</value></Data><Data name="tourism"><value>attraction</value></Data></ExtendedData></Placemark><Placemark><name>Деревья любви</name><Point><coordinates>37.618606,55.7443636</coordinates></Point><ExtendedData><Data name="@id"><value>node/4595636713</value></Data><Data name="name"><value>Деревья любви</value></Data><Data name="start_date"><value>2007-04</value></Data><Data name="tourism"><value>attraction</value></Data><Data name="wikidata"><value>Q4158815</value></Data><Data name="wikipedia"><value>ru:Дерево_любви</value></Data></ExtendedData></Placemark><Placemark><name>Подводный обитаемый аппарат &quot;Аргус&quot;</name><Point><coordinates>37.6123337,55.7559336</coordinates></Point><ExtendedData><Data name="@id"><value>node/4646606685</value></Data><Data name="alt_name"><value>Батискаф &quot;Аргус&quot;</value></Data><Data name="name"><value>Подводный обитаемый аппарат &quot;Аргус&quot;</value></Data><Data name="short_name"><value>ПАО &quot;Аргус&quot;</value></Data><Data name="tourism"><value>attraction</value></Data></ExtendedData></Placemark><Placemark><name>Водолаз-маяк</name><Point><coordinates>37.5937494,55.724755</coordinates></Point><ExtendedData><Data name="@id"><value>node/4650948389</value></Data><Data name="name"><value>Водолаз-маяк</value></Data><Data name="tourism"><value>attraction</value></Data></ExtendedData></Placemark><Placemark><name>Городская усадьба О.П. Коробковой</name><Point><coordinates>37.6286348,55.7393808</coordinates></Point><ExtendedData><Data name="@id"><value>node/4692191290</value></Data><Data name="name"><value>Городская усадьба О.П. Коробковой</value></Data><Data name="name:ru"><value>Городская усадьба О.П. Коробковой</value></Data><Data name="tourism"><value>attraction</value></Data></ExtendedData></Placemark><Placemark><name>Доходный дом Г.Е. Бройдо</name><Point><coordinates>37.5887893,55.7442619</coordinates></Point><ExtendedData><Data name="@id"><value>node/4705219598</value></Data><Data name="name"><value>Доходный дом Г.Е. Бройдо</value></Data><Data name="name:ru"><value>Доходный дом Г.Е. Бройдо</value></Data><Data name="tourism"><value>attraction</value></Data></ExtendedData></Placemark><Placemark><name>Городская усадьба братьев Гандуриных</name><Point><coordinates>37.5955052,55.7435936</coordinates></Point><ExtendedData><Data name="@id"><value>node/4705231893</value></Data><Data name="name"><value>Городская усадьба братьев Гандуриных</value></Data><Data name="name:ru"><value>Городская усадьба братьев Гандуриных</value></Data><Data name="tourism"><value>attraction</value></Data></ExtendedData></Placemark></Document></kml>